[
  {
  "id": 1,
  "title": "Flammen",
  "address": "Campusvej 55",
  "openingHours": "08:00 - 20:00",
  "featured": false
  },
  {
    "id": 2,
    "title": "Dirst Item",
    "address": "Campusvej 55",
    "openingHours": "08:00 - 20:00",
    "featured": false
  },
  {
    "id": 3,
    "title": "First Item",
    "address": "Campusvej 55",
    "openingHours": "08:00 - 20:00",
    "featured": false
  },
  {
    "id": 4,
    "title": "First Item",
    "address": "Campusvej 55",
    "openingHours": "08:00 - 20:00",
    "featured": false
  },
  {
    "id": 5,
    "title": "First Item",
    "address": "Campusvej 55",
    "openingHours": "08:00 - 20:00",
    "featured": false
  },
  {
    "id": 6,
    "title": "First Item",
    "address": "Campusvej 55",
    "openingHours": "08:00 - 20:00",
    "featured": false
  },
  {
    "id": 5,
    "title": "First Item",
    "address": "Campusvej 55",
    "openingHours": "08:00 - 20:00",
    "featured": false
  },
  {
    "id": 6,
    "title": "First Item",
    "address": "Campusvej 55",
    "openingHours": "08:00 - 20:00",
    "featured": false
  }
]